City_ID,City,Country,Max Temp,Current Conditions,Lat,Lng,Hotel Name
0,Rikitea,PF,298.88,broken clouds,-23.1203,-134.9692,People ThankYou
1,Soligalich,RU,266.06,snow,59.0778,42.2864,Kurort Im. A.p. Borodina
3,Soyo,AO,298.43,light rain,-6.1349,12.3689,Hotel Mpampa
4,Vaini,TO,300.24,light rain,-21.2,-175.2,Keleti Beach Resort
5,Tasiilaq,GL,262.24,broken clouds,65.6145,-37.6368,The Red House
6,Atuona,PF,299.14,clear sky,-9.8,-139.0333,Villa Enata
7,Hermanus,ZA,295.32,clear sky,-34.4187,19.2345,Misty Waves Boutique Hotel
8,Jaque,PA,296.79,scattered clouds,7.5175,-78.1703,Aventuras Jaque S.A
10,Mataura,NZ,301.4,overcast clouds,-46.1927,168.8643,Ellie's Villa
11,Kapaa,US,297.14,overcast clouds,22.0752,-159.319,Sheraton Kauai Coconut Beach Resort
12,Aquiraz,BR,301.03,overcast clouds,-3.9014,-38.3911,Pousada Rua Camurupim
13,Constitucion,CL,287.0,clear sky,-35.3333,-72.4167,Hotel Boutique Las Azucenas
14,Lebu,CL,286.92,clear sky,-37.6167,-73.65,Hostal Las Lilas
15,Karratha,AU,304.59,overcast clouds,-20.7377,116.8463,ibis Styles Karratha
16,Norman Wells,CA,256.17,light snow,65.282,-126.8329,Heritage Hotel
17,Ushuaia,AR,277.96,broken clouds,-54.8,-68.3,Albatross Hotel
18,Helong,CN,266.71,few clouds,42.5397,128.9972,Helong Hotel
19,Vardo,NO,264.26,scattered clouds,70.3705,31.1107,Vardø Hotel AS
20,Dingle,PH,301.95,overcast clouds,10.9995,122.6711,SEGAYA PROPERTY
21,Hambantota,LK,302.34,few clouds,6.1241,81.1185,Bungalow 63
22,Cape Town,ZA,295.44,clear sky,-33.9258,18.4232,Southern Sun Waterfront Cape Town
24,Sitka,US,275.09,overcast clouds,57.0531,-135.33,Westmark Sitka
25,East London,ZA,296.67,clear sky,-33.0153,27.9116,Tu Casa
26,Busselton,AU,298.75,clear sky,-33.65,115.3333,Observatory Guest House
27,Bluff,NZ,290.2,overcast clouds,-46.6,168.3333,Bluff Homestead - Guesthouse & Campervan Park
28,Dunedin,NZ,292.48,overcast clouds,-45.8742,170.5036,Scenic Hotel Southern Cross
30,Sao Joao Da Barra,BR,297.46,overcast clouds,-21.6403,-41.0511,Pousada Porto De Canoas
31,Hilo,US,296.0,broken clouds,19.7297,-155.09,Hilo Hawaiian Hotel
32,Portland,US,278.31,scattered clouds,45.5234,-122.6762,Embassy Suites by Hilton Portland Downtown
33,Kushima,JP,287.17,light rain,31.4583,131.2333,Hanaoka
34,Bredasdorp,ZA,294.97,scattered clouds,-34.5322,20.0403,Bredasdorp Country Manor
35,Castro,BR,289.27,clear sky,-24.7911,-50.0119,CHACARA BAILLY
36,Antsohihy,MG,300.33,overcast clouds,-14.8796,47.9875,Hotel de Ville
37,Puerto Cabezas,NI,294.34,clear sky,14.0351,-83.3888,Cabaña Caribe
38,Missoula,US,265.37,overcast clouds,47.0166,-113.8009,Gold Creek Cabin
39,Cherskiy,RU,252.93,overcast clouds,68.75,161.3,Gostinitsa
40,Mali,GN,289.46,scattered clouds,12.079,-12.2982,Hotel La Dame de Mali
41,Hasaki,JP,283.31,overcast clouds,35.7333,140.8333,Hotel Sunrise Choshi
42,Narsaq,GL,269.27,overcast clouds,60.9167,-46.05,Sleep In Narsaq
43,Jamestown,US,269.66,clear sky,42.097,-79.2353,Hampton Inn & Suites Jamestown
44,Fortuna,US,282.0,overcast clouds,40.5982,-124.1573,Super 8 by Wyndham Fortuna
46,Marsa Matruh,EG,284.26,scattered clouds,31.3525,27.2453,Beau Site
48,Torbay,CA,273.47,broken clouds,47.6666,-52.7314,Gallows Cove
49,Apt,FR,277.31,scattered clouds,43.8833,5.4,Vacances ULVF Castel Luberon
50,Agucadoura,PT,281.46,clear sky,41.4318,-8.7804,Varzinn Hotel
51,Salalah,OM,293.2,few clouds,17.0151,54.0924,"HAMDAN PLAZA HOTEL SALALAH, an HTG Hotel"
52,Severo-Kurilsk,RU,271.47,overcast clouds,50.6789,156.125,Kak Doma
53,Praia,CV,294.45,clear sky,14.9215,-23.5087,LT Aparthotel
54,Carnarvon,AU,304.19,scattered clouds,-24.8667,113.6333,Hospitality Carnarvon
55,Aklavik,CA,251.61,overcast clouds,68.2191,-135.0107,Aklavik Inn
56,Hobart,AU,296.07,clear sky,-42.8794,147.3294,Mantra on Collins Hobart
57,Puerto Ayora,EC,295.12,overcast clouds,-0.7393,-90.3518,Finch Bay Galapagos Hotel
58,Tarko-Sale,RU,255.57,overcast clouds,64.9225,77.785,Yubileynaya
60,Dicabisagan,PH,296.66,overcast clouds,17.0818,122.4157,Nancy Montanes Bernardo
61,Dzilam Gonzalez,MX,290.47,scattered clouds,21.2833,-88.9333,posadas
62,Waipawa,NZ,297.5,broken clouds,-41.4122,175.5153,Tora Coastal Walk
63,New Norfolk,AU,295.87,scattered clouds,-42.7826,147.0587,The Shingles Riverside Cottages
64,Marawi,PH,300.25,broken clouds,7.9986,124.2928,Derogongan Residence
65,Khatanga,RU,238.72,few clouds,71.9667,102.5,"""Khatanga"""
66,Vila Velha,BR,296.12,heavy intensity rain,-20.3297,-40.2925,Quality Suites Vila Velha
67,Harper,LR,298.25,broken clouds,4.375,-7.7169,Screensaver
68,Newport,GB,283.07,overcast clouds,51.5877,-2.9984,ibis budget Newport
69,Takoradi,GH,297.86,overcast clouds,4.8845,-1.7554,Raybow International Hotel
70,Punta Arenas,CL,281.21,light rain,-53.15,-70.9167,Hotel Hain
71,Mehamn,NO,269.12,clear sky,71.0357,27.8492,Mehamn Arctic Hotel AS
72,Port Alfred,ZA,298.37,overcast clouds,-33.5906,26.891,The Halyards Hotel
73,Butaritari,KI,300.9,light rain,3.0707,172.7902,Isles Sunset Lodge
74,Longyearbyen,SJ,263.06,light snow,78.2186,15.6401,"Radisson Blu Polar Hotel, Spitsbergen"
75,Ankang,CN,280.68,light rain,32.68,109.0172,安琪酒店
76,The Valley,AI,298.2,few clouds,18.217,-63.0578,CeBlue Villas & Beach Resort
77,Sri Aman,MY,305.18,few clouds,1.2376,111.4621,Seri Simanggang Hotel
78,Saint George,US,283.9,clear sky,37.1041,-113.5841,Best Western Plus Abbey Inn
79,Mandalgovi,MN,261.24,clear sky,45.7625,106.2708,В.Ганбат
80,Clyde River,CA,244.28,overcast clouds,70.4692,-68.5914,Qamaq Hotel
81,Qaanaaq,GL,244.46,few clouds,77.484,-69.3632,Qaanaaq Hotel
82,Saint-Philippe,RE,301.9,overcast clouds,-21.3585,55.7679,"Chambres d'hôte ""La Trinité"""
83,Kununurra,AU,306.14,overcast clouds,-15.7667,128.7333,Hotel Kununurra
84,Ponta Do Sol,PT,291.55,clear sky,32.6667,-17.1,Hotel do Campo
85,Hamilton,US,274.62,clear sky,39.1834,-84.5333,Six Acres Bed & Breakfast
86,Alofi,NU,300.09,overcast clouds,-19.0595,-169.9187,Taloa Heights
87,Trud,BG,273.25,broken clouds,42.2333,24.7333,Къща ХВ
88,Acapulco,MX,299.05,few clouds,16.8634,-99.8901,HS Hotsson Smart Acapulco
89,Mar Del Plata,AR,289.75,clear sky,-38.0023,-57.5575,Gran Hotel Mar del Plata
90,Prainha,BR,295.9,overcast clouds,-1.8,-53.48,Casa Rocha
91,Lac-Megantic,CA,258.16,overcast clouds,45.5834,-70.8823,Motel Le Quiet
92,Nador,MA,291.29,clear sky,35.174,-2.9287,Hôtel La Giralda
93,Kieta,PG,302.36,overcast clouds,-6.2167,155.6333,Uruna Bay Retreat
94,Xining,CN,266.36,scattered clouds,36.6167,101.7667,Super Leisure Hotel
95,Muros,ES,283.84,clear sky,42.7762,-9.0603,Apartment Av. Castelao
96,Hithadhoo,MV,301.24,clear sky,-0.6,73.0833,Scoop Guest House
97,Codrington,AU,289.5,overcast clouds,-38.2667,141.9667,Codrington Gardens Bed And Breakfast
98,Kodiak,US,274.88,light snow,57.79,-152.4072,Best Western Kodiak Inn And Convention Center
99,Bathsheba,BB,298.49,scattered clouds,13.2167,-59.5167,Atlantis Hotel
100,Tynda,RU,256.13,scattered clouds,55.1667,124.7167,"Gostinitsa ""Tayezhnaya"""
101,Sao Filipe,CV,297.03,overcast clouds,14.8961,-24.4956,Hotel Xaguate
102,Kailua,US,297.14,few clouds,21.4022,-157.7394,Sheffield House Bed & Breakfast
103,Ketchikan,US,275.41,overcast clouds,55.3422,-131.6461,Snow's Cove Lodge
104,Sesheke,ZM,292.75,overcast clouds,-17.4759,24.2968,Protea Hotel by Marriott Zambezi River Lodge
105,Turayf,SA,273.29,clear sky,31.6725,38.6637,Turaif
106,Nuuk,GL,264.49,light snow,64.1835,-51.7216,Vandrehuset
108,Tiksi,RU,249.37,overcast clouds,71.6872,128.8694,Arktika
109,Lorengau,PG,298.51,overcast clouds,-2.0226,147.2712,Lorengau Harbourside Hotel
110,Isangel,VU,300.33,overcast clouds,-19.55,169.2667,Tanna Lodge
111,Banjar,ID,305.07,scattered clouds,-8.19,114.9675,The Hamsa Resort
112,Barrow,US,246.16,overcast clouds,71.2906,-156.7887,King Eider Inn
113,Phulji,PK,295.13,clear sky,26.8825,67.6807,Irfan hotel Phulji
114,Lagoa,PT,288.14,broken clouds,39.05,-27.9833,Casa Das Faias
115,Berlevag,NO,269.15,scattered clouds,70.8578,29.0864,Kvitbrakka
116,Ulaanbaatar,MN,252.22,few clouds,47.9077,106.8832,The Blue Sky Hotel and Tower
117,Kavieng,PG,299.4,moderate rain,-2.5744,150.7967,Nusa Island Retreat
118,Olenino,RU,267.16,overcast clouds,56.2092,33.4889,Kolos
119,Rolla,US,283.07,clear sky,37.9514,-91.7713,"Holiday Inn Express & Suites Rolla - Univ of Missouri S&T, an IHG Hotel"
120,Wuwei,CN,269.1,overcast clouds,37.9281,102.6414,Thank Inn Chain Hotel gansu wuwei liangzhou district xiguan middle road
121,Mahebourg,MU,301.07,broken clouds,-20.4081,57.7,Shandrani Beachcomber Resort & Spa
123,Rocha,UY,286.15,clear sky,-34.4833,-54.3333,Hotel Arrarte
124,Bubaque,GW,297.88,overcast clouds,11.2833,-15.8333,"Casa Dora, Bubaque"
125,Pochutla,MX,298.62,clear sky,15.7432,-96.4661,Hotel Posada San Jose
126,Fuyu,CN,260.76,few clouds,45.1833,124.8167,Education Hostel
127,Lensk,RU,256.12,overcast clouds,60.7253,114.9278,ТинОрС
128,Pisco,PE,295.18,overcast clouds,-13.7,-76.2167,Hotel San Isidro Oficial
129,Ulaangom,MN,245.28,overcast clouds,49.9811,92.0667,Achit Nuur Hotel & Restaurant
132,Raymondville,US,292.58,clear sky,26.4815,-97.7831,La Quinta Inn & Suites by Wyndham Raymondville
133,Tamandare,BR,298.49,broken clouds,-8.7597,-35.1047,Pousada 100 Passos
135,Lewistown,US,268.99,mist,40.5992,-77.5714,Quality Inn & Suites
136,Whitecourt,CA,254.73,broken clouds,54.1502,-115.6855,Super 8 by Wyndham Whitecourt
137,Tautira,PF,302.04,light rain,-17.7333,-149.15,Pension Oaoa
138,Marevo,RU,268.16,snow,57.3146,32.0804,"Ivushka, Gostinitsa"
139,Svay Rieng,KH,305.53,few clouds,11.0879,105.7993,Apsara guesthouse
140,Tuktoyaktuk,CA,243.15,scattered clouds,69.4541,-133.0374,End of The Road Ltd.
141,Maniitsoq,GL,262.24,light snow,65.4167,-52.9,Hotel Heilmann Lyberth
143,Port Hardy,CA,276.9,light intensity shower rain,50.6996,-127.4199,Airport Inn-Port Hardy
145,Puerto Escondido,MX,299.61,scattered clouds,15.85,-97.0667,Aldea del Bazar Hotel and Spa
146,Chuy,UY,288.42,clear sky,-33.6971,-53.4616,Nuevo Hotel Plaza
147,Quatre Cocos,MU,300.98,light rain,-20.2078,57.7625,Sunrise Attitude Hotel
148,Monrovia,LR,296.02,broken clouds,6.3005,-10.7969,Sunset Inn
149,Mahon,ES,283.46,overcast clouds,39.8885,4.2658,ARTIEM Capri
150,Codo,BR,296.34,broken clouds,-4.4553,-43.8856,Hotel Porto do Sol
151,Pimentel,PE,294.43,scattered clouds,-6.8367,-79.9342,Casona Del Muelle
152,Bethel,US,266.87,clear sky,41.3712,-73.414,Courtyard by Marriott Danbury
153,Iqaluit,CA,239.09,clear sky,63.7506,-68.5145,Frobisher Inn
154,Vestmannaeyjar,IS,273.62,scattered clouds,63.4427,-20.2734,Glamping & Camping
155,Bonavista,CA,272.66,scattered clouds,48.6499,-53.1147,Abbott's Bed & Breakfast
156,Port Lincoln,AU,291.89,scattered clouds,-34.7333,135.8667,Port Lincoln Hotel
157,Arraial Do Cabo,BR,297.77,overcast clouds,-22.9661,-42.0278,Pousada Porto Praia
159,Victoria,HK,288.84,overcast clouds,22.2855,114.1577,Mini Hotel Central
160,Kuching,MY,304.27,scattered clouds,1.55,110.3333,The Ranee Boutique Suites
161,Sarkand,KZ,269.53,overcast clouds,45.41,79.9186,Гостиница Сарканд
163,Coquimbo,CL,291.0,overcast clouds,-29.9533,-71.3436,Hostel Del Puerto
164,Sao Raimundo Das Mangabeiras,BR,296.45,broken clouds,-7.0219,-45.4811,Hotel Tropical
165,Ahipara,NZ,295.06,overcast clouds,-35.1667,173.1667,Ahipara Holiday Park
166,Narrabri,AU,309.55,scattered clouds,-30.3167,149.7833,Crossroads Hotel
167,Avarua,CK,299.18,few clouds,-21.2078,-159.775,Paradise Inn
168,Ahuimanu,US,297.99,few clouds,21.4447,-157.8378,Paradise Bay Resort
169,Olga,RU,268.27,clear sky,43.7444,135.2892,Gostinitsa Rosmorport.
170,Karatau,KZ,273.99,scattered clouds,43.1667,70.4667,Baza Zika
171,Caravelas,BR,298.11,broken clouds,-17.7125,-39.2481,Pousada dos Navegantes
172,Chiredzi,ZW,295.15,clear sky,-21.05,31.6667,Clevers Hotel Chiredzi
173,Turukhansk,RU,261.03,light snow,65.8167,87.9833,"ООО ""Туруханская пушнина"""
174,Bengkulu,ID,302.39,broken clouds,-3.8004,102.2655,Grage Hotel Bengkulu
175,Mitsamiouli,KM,298.31,few clouds,-11.3847,43.2844,Foyer ADM
176,Thompson,CA,256.24,overcast clouds,55.7435,-97.8558,Burntwood Hotel
177,Smoky Lake,CA,252.57,overcast clouds,54.1169,-112.4686,Country Garden Hotel
178,Kandrian,PG,301.44,moderate rain,-6.2167,149.55,Kandrian Station
179,Yankton,US,280.29,clear sky,42.8711,-97.3973,"Holiday Inn Express & Suites Yankton, an IHG Hotel"
180,Rorvik,NO,270.32,overcast clouds,64.8621,11.2373,Kysthotellet Rørvik AS
181,Hurricane,US,282.37,broken clouds,37.1753,-113.2899,Super 8 by Wyndham Hurricane Zion National Park
183,Omboue,GA,298.17,broken clouds,-1.5746,9.2618,Hotel Olako
184,Bowen,AU,305.27,scattered clouds,-20.0167,148.2333,Castle Motor Lodge Motel
185,Pevek,RU,246.82,broken clouds,69.7008,170.3133,Severnoye Zoloto
186,Nishihara,JP,292.96,broken clouds,26.1842,127.7558,Minshuku Agaihama
187,Flin Flon,CA,255.93,light snow,54.7682,-101.865,Victoria Inn Flin Flon
188,Veraval,IN,297.35,clear sky,20.9,70.3667,Lords Inn Somnath
189,Bloomfield,US,270.19,clear sky,40.8068,-74.1854,La Quinta Inn & Suites by Wyndham Clifton/Rutherford
190,Cidreira,BR,295.52,clear sky,-30.1811,-50.2056,Hotel Castelo
191,Nikolskoye,RU,269.09,snow,59.7035,30.7861,Tourist House - Sablino
192,Yellowknife,CA,248.38,few clouds,62.456,-114.3525,The Explorer Hotel
193,San Francisco,US,285.4,scattered clouds,37.7749,-122.4194,The Clift Royal Sonesta Hotel
195,Sechura,PE,295.88,overcast clouds,-5.5569,-80.8222,Hospedaje Costa Bella
196,Port Elizabeth,ZA,295.43,mist,-33.918,25.5701,39 On Nile Guest House
197,Kermanshah,IR,273.65,light intensity drizzle,34.3142,47.065,Sina Hotel
198,Kruisfontein,ZA,294.2,overcast clouds,-34.0033,24.7314,Oyster Bay House Rental
199,Katsuura,JP,282.17,overcast clouds,35.1333,140.3,Katsuura Hotel Mikazuki
201,Hami,CN,269.57,scattered clouds,42.8,93.45,Laoyutang Resort
202,Georgetown,MY,306.11,few clouds,5.4112,100.3354,Cititel Penang
203,Marsh Harbour,BS,291.54,clear sky,26.5412,-77.0636,Abaco Beach Resort
204,Viedma,AR,295.1,clear sky,-40.8135,-62.9967,Hotel Cristal
205,Huarmey,PE,294.58,scattered clouds,-10.0681,-78.1522,Hotel Miramar
206,Devarkonda,IN,299.23,few clouds,16.7,78.9333,Home
207,Laguna,US,285.43,clear sky,38.421,-121.4238,"Holiday Inn Express & Suites Elk Grove Central - Hwy 99, an IHG Hotel"
208,Cochrane,CA,261.04,overcast clouds,51.1834,-114.4687,Days Inn & Suites by Wyndham Cochrane
209,Norden,DE,278.13,overcast clouds,53.6,7.2,Stadthotel Restaurant Smutje
210,Chicama,PE,290.45,broken clouds,-7.8447,-79.1469,Balihai Bungalows
211,Amuntai,ID,307.72,overcast clouds,-2.4177,115.2494,Hotel Balqis
212,Hutchinson,US,286.12,clear sky,38.0608,-97.9298,OYO Hotel Hutchinson KS West 4th Ave
214,Kilindoni,TZ,300.05,broken clouds,-7.9139,39.6668,Bustani B&B
215,Emirdag,TR,267.08,overcast clouds,39.0197,31.15,Emirdağ Öğretmenevi
216,Payson,US,275.05,clear sky,40.0444,-111.7321,Quality Inn Payson I-15
217,Riberalta,BO,295.34,overcast clouds,-10.9833,-66.1,Hotel Colonial
219,Sibolga,ID,301.09,moderate rain,1.7427,98.7792,Hotel Syariah CN Darussalam
220,Bubanza,BI,292.33,light rain,-3.1167,29.4,Maison d'accueil le buissonnet
221,Beyneu,KZ,274.33,broken clouds,45.3167,55.2,NUR
222,Paraiso,CR,290.63,overcast clouds,9.8383,-83.8656,Hotel Rinconcito Verde
223,Sovetskaya Gavan,RU,264.88,overcast clouds,48.9723,140.2878,"Хостел ""Пилигрим"""
224,Luoyang,CN,277.59,clear sky,34.6836,112.4536,易家国际青年旅舍
225,Kavaratti,IN,300.21,clear sky,10.5669,72.642,Hotels in Lakshadweep Islands
226,Tokyo,JP,284.1,few clouds,35.6895,139.6917,Hilton Tokyo
227,Lompoc,US,287.82,scattered clouds,34.6391,-120.4579,"Holiday Inn Express Lompoc, an IHG Hotel"
229,Nicolet,CA,256.78,clear sky,46.2168,-72.6158,Montfort Nicolet Hotel
230,Kaitangata,NZ,294.22,overcast clouds,-46.2817,169.8464,Kaitangata Motor Camp
231,Russell,US,282.72,clear sky,32.3502,-85.1999,Macs
232,Tiarei,PF,301.16,few clouds,-17.5333,-149.3333,Le Rocher de Tahiti
233,Petropavlovsk-Kamchatskiy,RU,271.48,light snow,53.0452,158.6483,The Hotel Petropavlovsky
234,Ialibu,PG,288.28,moderate rain,-6.2821,143.9935,Eastwood Guesthouse
236,Taltal,CL,290.9,clear sky,-25.4,-70.4833,Residencial Karime
237,Havelock,US,277.56,clear sky,34.8791,-76.9013,Sherwood Motel
238,Geraldton,AU,308.38,clear sky,-28.7667,114.6,Broadwater Mariner Resort
239,Port Macquarie,AU,303.13,thunderstorm,-31.4333,152.9167,Rydges Port Macquarie
240,Ilulissat,GL,258.16,overcast clouds,69.2167,-51.1,Hotel Arctic
241,Tuatapere,NZ,294.73,moderate rain,-46.1333,167.6833,Ron and Tony's Bed & Breakfast
242,Novyy Urengoy,RU,256.42,overcast clouds,66.0833,76.6333,Apartments Moy Dom na Gubkina
245,Itarema,BR,298.04,broken clouds,-2.9248,-39.9167,"Sea Lounge! Bar, Club & Restaurant"
246,Hobyo,SO,299.55,light rain,5.3505,48.5268,Halane Hotel and Restaurent
247,Bandarbeyla,SO,298.53,broken clouds,9.4942,50.8122,JABIR HOTEL
248,Maua,BR,294.04,overcast clouds,-23.6678,-46.4614,Hotel Capriccio Mauá
249,Spirit River,CA,255.44,overcast clouds,55.7833,-118.8361,Motel 49
250,Norrtalje,SE,268.84,overcast clouds,59.758,18.705,Norrtälje Vandrarhem Hvilan
251,Kuah,MY,305.15,few clouds,6.3265,99.8432,Azio Hotel
253,Namanga,KE,291.43,light rain,-2.5433,36.7905,Hillsgate Home
254,Prado,BR,297.76,scattered clouds,-17.3411,-39.2208,INN CORNER RIVER - PRADO - BAHIA - HOUSING AND HOTEL
255,Shache,CN,273.87,broken clouds,38.4167,77.2406,Delong Hotel
256,Waingapu,ID,304.83,few clouds,-9.6567,120.2641,Pondok Wisata Elim
257,Astorga,BR,295.37,broken clouds,-23.2325,-51.6656,Rancho Jads
258,Poum,NC,300.29,scattered clouds,-20.2333,164.0167,Gîte kajeon
259,Digby,CA,269.88,overcast clouds,44.6169,-65.7655,Digby Pines Golf Resort and Spa
260,Yulara,AU,296.06,heavy intensity rain,-25.2406,130.9889,Desert Gardens Hotel - Ayers Rock Resort
261,Iwanai,JP,272.17,overcast clouds,42.9744,140.5089,いわない高原ホテル
262,Williston,US,262.56,overcast clouds,48.147,-103.618,Hampton Inn & Suites Williston
263,Udomlya,RU,268.59,overcast clouds,57.8794,34.9925,Rus'
264,Nabire,ID,302.24,overcast clouds,-3.3667,135.4833,Hotel Nusantara Nabire
265,Atar,MR,298.1,overcast clouds,20.5169,-13.0499,Oumou Elghoura
266,Beringovskiy,RU,260.34,snow,63.05,179.3167,Beringgorski
267,Praia Da Vitoria,PT,288.29,scattered clouds,38.7333,-27.0667,Hotel Branco I
268,Vila Franca Do Campo,PT,287.38,broken clouds,37.7167,-25.4333,Pestana Bahia Praia
269,Astoria,US,279.23,broken clouds,46.1879,-123.8313,Best Western Astoria Bayfront Hotel
270,Nata,PA,297.85,broken clouds,8.3333,-80.5167,Rey David
273,Port Blair,IN,300.17,haze,11.6667,92.75,"Welcomhotel By ITC Hotels, Bay Island, Port Blair"
274,Kattivakkam,IN,302.2,scattered clouds,13.2167,80.3167,Euronova Freezer
275,Zhireken,RU,256.51,few clouds,52.8249,117.3076,Gostinitsa
276,Saint-Georges,GD,298.97,few clouds,12.0564,-61.7485,Radisson Grenada Beach Resort
277,Waitati,NZ,291.37,overcast clouds,-45.75,170.5667,Arden Country House BnB Dunedin
278,La Romana,DO,295.0,few clouds,18.4273,-68.9728,Casa de Campo Resort and Villas
280,Miri,MY,303.23,scattered clouds,4.4148,114.0089,"Mega Hotel, Miri"
281,Hervey Bay,AU,305.21,broken clouds,-25.2986,152.8535,Shelly Bay Resort
282,Verkh-Usugli,RU,257.23,scattered clouds,52.7,115.1667,"Gostinitsa ""Sever"""
283,Ambilobe,MG,299.3,light rain,-13.2,49.05,Hôtel & Restaurant DIANA Ambilobe
284,Axim,GH,297.88,overcast clouds,4.8699,-2.2405,Axim Beach Resort And Spa
285,Jalu,LY,283.17,clear sky,29.0331,21.5482,صاحبة الفخامة
286,Grindavik,IS,273.41,overcast clouds,63.8424,-22.4338,Northern Light Inn & Max's Restaurant
287,Katobu,ID,305.77,overcast clouds,-4.9408,122.5276,La Ode Husein
288,Necochea,AR,286.5,clear sky,-38.5473,-58.7368,dyd -mar Hotel
289,Pringsewu,ID,304.36,overcast clouds,-5.3582,104.9744,Urban Style by Front One
290,Nome,US,264.19,clear sky,64.5011,-165.4064,Dredge 7 Inn
292,Karangampel,ID,303.6,broken clouds,-6.4622,108.4519,ROOFTOP WAG ALL
293,Shilong,CN,284.31,light rain,23.1123,113.8425,Cinese Hotel Dongguan Shijie
294,Curaca,BR,297.54,few clouds,-8.9903,-39.9094,Hotel Recanto Campestre
295,Honiara,SB,301.88,broken clouds,-9.4333,159.95,Heritage Park Hotel
297,Baruun-Urt,MN,256.55,few clouds,46.6806,113.2792,Ахмадын амралт сувилал
298,San Cristobal,VE,293.25,overcast clouds,7.7669,-72.225,Posada Villaven C.A.
299,Sao Raimundo Nonato,BR,296.89,scattered clouds,-9.0153,-42.6994,Real Hotel
300,Mayo,US,272.52,clear sky,38.8876,-76.5119,Resorts Resource Group International
301,Asyut,EG,280.25,clear sky,27.181,31.1837,فندق ميس إيجيبت Miss Egypt Hotel
302,Guerrero Negro,MX,288.71,few clouds,27.9769,-114.0611,"Casa Laguna, Bed & Breakfast"
303,Alice Springs,AU,301.9,broken clouds,-23.7,133.8833,Desert Palms Alice Springs
305,Ambulu,ID,303.89,broken clouds,-8.345,113.6058,Hotel Ambulu Jember
306,Kondinskoye,RU,251.7,overcast clouds,59.6481,67.41,Gostinitsa
307,Borovoy,RU,261.75,light shower snow,55.4333,86.0833,Tsimus
308,Misratah,LY,285.47,overcast clouds,32.3754,15.0925,Almasa Hotel
309,Pedernales,DO,296.83,few clouds,18.0384,-71.744,Hotel Costa Marina
310,Krasnoselkup,RU,259.28,overcast clouds,65.7,82.4667,Krasnosel'kupnefteprodukt
311,Korbach,DE,275.61,overcast clouds,51.2756,8.873,Hotel Goldflair am Rathaus
312,Moengo,SR,295.15,broken clouds,5.6167,-54.4,Masanga
313,Nanortalik,GL,267.71,overcast clouds,60.1432,-45.2371,Hotel Kap Farvel
314,Komsomolskiy,UZ,273.55,mist,40.4272,71.7189,Ikathouse
315,Zhangye,CN,269.95,broken clouds,38.9342,100.4517,Zhangye Lvzhou Holiday Inn
316,Bandar-E Anzali,IR,281.21,overcast clouds,37.4727,49.4622,هتل بیاچ
317,Mount Gambier,AU,293.1,broken clouds,-37.8333,140.7667,The Commodore
318,Aswan,EG,282.94,clear sky,24.0934,32.907,Nuba Nile
319,Namibe,AO,294.06,overcast clouds,-15.1961,12.1522,Hotel Chik Chik Namibe
320,Mattru,SL,294.76,broken clouds,7.6244,-11.8332,"Mondkor Town, Bagbo Chiefdom, Bo District"
321,Kurchum,KZ,255.52,scattered clouds,48.5722,83.6542,"Gostinitsa ""Kneda"""
322,Saldanha,ZA,289.18,few clouds,-33.0117,17.9442,Blue Bay Lodge
323,Fairview,US,269.95,clear sky,40.8126,-73.999,Homewood Suites by Hilton Edgewater-NYC Area
324,Nelson Bay,AU,307.46,few clouds,-32.7167,152.15,Mantra Nelson Bay
325,Channel-Port Aux Basques,CA,268.04,overcast clouds,47.5702,-59.1367,St. Christopher's Hotel
326,Bambous Virieux,MU,301.05,light rain,-20.3428,57.7575,Casa Tia Villa
327,Semenyih,MY,305.01,overcast clouds,2.9516,101.843,Diamond City Bungalow 13 pax by BeeStay near Broga
328,Biak,ID,303.19,broken clouds,-0.9131,122.8766,Penginapan Kim
329,Vila,PT,277.78,clear sky,42.0304,-8.1588,Hotel Castrum Villae by Walk Hotels
330,Tomatlan,MX,290.83,clear sky,19.9333,-105.25,El Salvial
331,Yangjiang,CN,286.45,overcast clouds,21.85,111.9667,HUALUXE Yangjiang City Center
332,Kaeo,NZ,295.55,overcast clouds,-35.1,173.7833,Bushido Lodge
334,Vao,NC,298.74,broken clouds,-22.6667,167.4833,Hotel Kou-Bugny
336,Cooma,AU,302.02,broken clouds,-36.2333,149.1333,High Country Motel
337,Dongkan,CN,277.8,scattered clouds,33.9997,119.8308,Triumphal Resort
338,Luanda,AO,298.15,few clouds,-8.8368,13.2343,Hotel Fórum
339,Luga,RU,267.34,light snow,58.7372,29.8453,U Lysoy Gory Hotel
341,Arucas,ES,291.58,overcast clouds,28.1198,-15.5233,Hotel Melva Suite
343,Phan Thiet,VN,304.0,few clouds,10.9333,108.1,Hotel Saigon-PT
344,Sturgis,US,270.77,clear sky,41.7992,-85.4192,Best Western Plus Howe Inn
345,Idaho Falls,US,266.46,clear sky,43.4666,-112.0341,Hilton Garden Inn Idaho Falls
346,Bosaso,SO,298.14,scattered clouds,11.2842,49.1816,Red Sea Hotel
347,Suez,EG,283.08,clear sky,29.9737,32.5263,Green House
348,Rawson,AR,294.8,clear sky,-43.3002,-65.1023,Hosteria Sampedro
349,Kjopsvik,NO,269.91,overcast clouds,68.097,16.3742,Stetind Hotell
350,Rawlins,US,268.39,clear sky,41.7911,-107.2387,"Holiday Inn Express Rawlins, an IHG Hotel"
351,Gouyave,GD,298.58,few clouds,12.1646,-61.7296,Rumboat Retreat
352,Tongliao,CN,262.17,clear sky,43.6125,122.2653,Meirujia Hotel
353,Ribeira Grande,PT,288.76,few clouds,38.5167,-28.7,Quinta da Meia Eira
354,Grand Gaube,MU,301.14,overcast clouds,-20.0064,57.6608,Veranda Paul et Virginie Hotel & Spa
355,Praya,CV,294.45,clear sky,14.9215,-23.5087,LT Aparthotel
356,Port Keats,AU,302.02,light rain,-14.25,129.55,TDC Village (Hundred Man Camp)
357,Esperance,AU,294.06,broken clouds,-33.8667,121.9,Hospitality Esperance
361,Lata,PT,283.74,clear sky,40.1629,-8.3327,Casa Maquia
362,Peleduy,RU,257.14,overcast clouds,59.6289,112.7406,Гостиница «Уют»
363,Inongo,CD,295.82,broken clouds,-1.95,18.2667,Hotel Du Lac
364,Mogadishu,SO,298.08,few clouds,2.0371,45.3438,Hotel Juba
365,Sulangan,PH,300.38,broken clouds,11.1373,123.7228,Maia's Beach Resort
368,Nobres,BR,294.61,overcast clouds,-14.7203,-56.3275,Hotel Portal Nobres
369,Bambanglipuro,ID,298.49,overcast clouds,-7.95,110.2833,Puri Brata
371,Flinders,AU,306.37,light rain,-34.5833,150.8552,Shellharbour Resort & Conference Centre
372,Conakry,GN,295.02,broken clouds,9.538,-13.6773,Riviera Royal Hotel
373,Ancud,CL,288.28,overcast clouds,-41.8697,-73.8203,Hotel Arena Gruesa
374,Alice,US,288.91,scattered clouds,27.7523,-98.0697,"Holiday Inn Express & Suites Alice, an IHG Hotel"
375,Robertsport,LR,298.38,broken clouds,6.7533,-11.3686,Kwepunha Retreat
376,Civitanova Marche,IT,280.29,scattered clouds,43.307,13.7206,Cosmopolitan Business Hotel
377,George,ZA,292.9,fog,-33.963,22.4617,Protea Hotel by Marriott George King George
378,Kerema,PG,300.52,light rain,-7.9631,145.7785,Frena Lodge
379,Brae,GB,282.1,overcast clouds,60.3964,-1.353,Busta House Hotel
380,Cabo San Lucas,MX,293.43,clear sky,22.8909,-109.9124,Hotel Tesoro Los Cabos
381,Mareeba,AU,302.84,light rain,-17.0,145.4333,Trinity Plains Tourist Park
382,Champerico,GT,299.46,few clouds,14.3,-91.9167,"Hotel y restaurante ""El Diamante"""
383,Northam,GB,282.83,overcast clouds,51.0333,-4.2167,Durrant House Hotel
384,Khorramshahr,IR,286.13,mist,30.4397,48.1664,دفتر نمایندگی شرکت بازاریابان ایرانیان زمینBIZ
386,Cap Malheureux,MU,301.19,overcast clouds,-19.9842,57.6142,Pereybere Hotel & Spa
387,Erenhot,CN,261.93,clear sky,43.6475,111.9767,Erenhot Rurouni Youth Hostel
388,Wilmington,US,278.1,clear sky,34.2257,-77.9447,"Hotel Ballast Wilmington, Tapestry Collection by Hilton"
389,Coihaique,CL,289.12,broken clouds,-45.5752,-72.0662,Diego De Almagro Coyhaique
390,La Macarena,CO,296.2,overcast clouds,2.1837,-73.7849,Hotel Punto Verde
391,Ormara,PK,296.22,clear sky,25.2088,64.6357,Crystal Beach and Camping Resort Ormara
392,Kahului,US,297.16,scattered clouds,20.8947,-156.47,Maui Seaside Hotel
393,Forbes,AU,298.1,light rain,-33.3833,148.0167,Lake Forbes Motel
394,Hofn,IS,270.09,scattered clouds,64.2539,-15.2082,Hótel Höfn
395,Cravo Norte,CO,299.09,overcast clouds,6.3017,-70.2041,Hotel Potosí Los Mirtos
396,Ishinomaki,JP,278.15,overcast clouds,38.4167,141.3,Hotel Route Inn Ishinomaki Henan Inter
397,San Jeronimo,PE,281.15,moderate rain,-11.9472,-75.2829,Tuki Llajta Pueblo Bonito Eco Lodge
398,Mantua,IT,281.88,scattered clouds,45.1667,10.7833,Hotel la Favorita
399,Tena,EC,294.86,overcast clouds,-0.9833,-77.8167,Hostal Tena Ñaui
400,Nampula,MZ,295.12,scattered clouds,-15.1165,39.2666,BUTIK Hotel
401,Moose Factory,CA,258.15,overcast clouds,51.2585,-80.6094,Moosonee Lilypad
402,Orcopampa,PE,280.19,overcast clouds,-15.2661,-72.3417,Happy Wasi
403,Pahrump,US,283.01,overcast clouds,36.2083,-115.9839,Best Western Pahrump Oasis
404,Lasa,IT,271.56,light snow,46.6166,10.7002,Pension Feldgärtenhof
405,Faanui,PF,300.37,light rain,-16.4833,-151.75,Bora-Bora Pearl Beach Resort & Spa
406,Naron,ES,283.16,few clouds,43.5167,-8.1528,Marcial
407,Virpur,IN,296.65,clear sky,23.1833,73.4833,"Khodiyar temple, Gadheli"
408,Poquoson,US,277.17,clear sky,37.1224,-76.3458,Whitehouse Cove
410,Pangnirtung,CA,238.74,overcast clouds,66.1451,-65.7125,Kilabuk Lodge
412,Tigzirt,DZ,284.97,broken clouds,36.8886,4.1198,Bloc D tazoumbirt (amar)
413,Jiazi,CN,285.7,overcast clouds,22.8779,116.067,Hotel Jin Hao
414,Onega,RU,261.44,overcast clouds,63.9061,38.1404,Lunny Kot Guest House
415,Ipameri,BR,292.4,overcast clouds,-17.7219,-48.1597,Real Hotel
416,Larsnes,NO,273.53,light snow,62.2028,5.5773,Liset Feriesenter AS
417,Leh,IN,259.84,overcast clouds,34.1667,77.5833,Hotel Ladakh Greens
418,Nouadhibou,MR,293.14,overcast clouds,20.931,-17.0347,El Medina
419,Danville,US,274.39,clear sky,36.586,-79.395,"Holiday Inn Express Danville, an IHG Hotel"
420,Touros,BR,297.65,broken clouds,-5.1989,-35.4608,INN NEW HORIZON
421,Solnechnyy,RU,259.05,overcast clouds,50.7214,136.6319,Hotel complex Pastoral
422,Klaksvik,FO,279.66,overcast clouds,62.2266,-6.589,Airbnb rooms
423,Pullman,US,273.28,clear sky,46.7313,-117.1796,"Holiday Inn Express & Suites Pullman, an IHG Hotel"
424,Punta Alta,AR,293.27,clear sky,-38.8759,-62.0736,Center Hotel Punta Alta
427,Tual,ID,301.9,overcast clouds,-5.6667,132.75,Grand Vilia Hotel
428,Presidencia Roque Saenz Pena,AR,296.5,broken clouds,-26.7852,-60.4388,Hotel Gualok
429,Sokna,NO,268.52,broken clouds,60.24,9.9235,Geitekastet
430,Komsomolsk,UA,269.84,overcast clouds,49.0097,33.6455,Гостинница Славутич
431,Agbor,NG,292.13,overcast clouds,6.2518,6.1934,MIRAMAS HOTEL
433,Goderich,CA,267.54,few clouds,43.7501,-81.7165,Harmony Inn
434,Aasiaat,GL,258.35,light snow,68.7098,-52.8699,Hotel Aasiaat Sømandshjem
435,Gemena,CD,292.13,overcast clouds,3.25,19.7667,Hôtel Goshen
436,Anupgarh,IN,292.09,clear sky,29.1911,73.2086,Kushal & Vishal DTH Kappa Internet Service
437,Anapskaya,RU,275.28,broken clouds,44.89,37.38,Continent Hotel
438,Abu Zabad,SD,285.46,clear sky,12.35,29.25,حامد محمد نور
439,Zhangjiakou,CN,265.22,light snow,40.81,114.8794,Shell Zhangjiakou City Qiaodong District Ginza Hotel
440,Datong,CN,266.38,clear sky,40.0936,113.2914,Holiday Inn Datong City Centre
441,Fujin,CN,261.21,few clouds,47.26,132.0322,Xilong Hotel Fujin Shop
442,Talnakh,RU,257.71,overcast clouds,69.4865,88.3972,Talnakh Hotel
443,Camana,PE,294.69,few clouds,-16.6228,-72.7111,Hostal Morales
444,Richards Bay,ZA,297.52,scattered clouds,-28.783,32.0377,BON Hotel Waterfront Richards Bay
445,Gravelbourg,CA,257.3,overcast clouds,49.8834,-106.5512,Historic Bishops Residence Bed & Breakfast
446,Kirovskiy,RU,261.36,overcast clouds,45.0917,133.5136,"Uyut, Gostinitsa"
448,Ponta Delgada,PT,287.55,few clouds,37.7333,-25.6667,Vila Nova Hotel
449,Rio Grande,BR,292.21,scattered clouds,-32.035,-52.0986,Hotel Atlântico Rio Grande
450,Okha,RU,258.55,overcast clouds,53.5739,142.9478,"Gostinitsa ""Sakhalin-Sfera"""
451,Jeremie,HT,297.03,scattered clouds,18.65,-74.1167,Auberge’Inn
452,Portree,GB,282.51,overcast clouds,57.4129,-6.1942,The Royal Hotel
454,Marovoay,MG,299.23,broken clouds,-16.1,46.6333,Hôtel les Oliviers Marovoay
455,Ambon,ID,305.23,light rain,-3.6954,128.1814,Swiss-Belhotel Ambon
456,Oparino,RU,265.12,overcast clouds,59.8518,48.2783,"Gostinitsa ""Oparino"""
457,Fort Nelson,CA,246.92,few clouds,58.8053,-122.7002,The Fort Nelson Hotel
458,Svetlyy,RU,273.18,overcast clouds,54.675,20.1347,"Gostinitsa-Kafe, Alena"
459,Bac,RS,274.78,overcast clouds,45.3919,19.2367,Agencija ABS
460,Casino,AU,308.05,light rain,-28.8667,153.05,Squatters Homestead Motel
461,Saint-Pierre,RE,301.95,broken clouds,-21.3393,55.4781,Lindsey Hôtel
463,Dauphin,CA,263.23,overcast clouds,51.1494,-100.0502,Canway Inn & Suites
464,Sur,OM,298.65,clear sky,22.5667,59.5289,Sur Plaza Hotel
465,Bilibino,RU,257.71,overcast clouds,68.0546,166.4372,Gostinitsa Severyanka
466,Broken Hill,AU,296.99,overcast clouds,-31.95,141.4333,Royal Exchange Hotel
467,Nizhniy Odes,RU,252.48,overcast clouds,63.6445,54.856,Gostinitsa Uyut
468,Baker City,US,270.27,broken clouds,44.7749,-117.8344,Bridge Street Inn
469,Tura,IN,292.58,broken clouds,25.5198,90.2201,Hotel RIKMAN Continental
470,Buala,SB,302.32,light rain,-8.145,159.5921,Maringe Lagoon Lodge
471,Concordia,AR,294.14,clear sky,-31.393,-58.0209,Palmar Hotel Casino
472,Cedar City,US,276.7,scattered clouds,37.6775,-113.0619,Hampton Inn Cedar City
473,Salamiyah,SY,278.81,clear sky,35.0113,37.0532,Gondolas Forum grandchildren and grandparents
474,Vinh,VN,288.72,overcast clouds,18.6667,105.6667,Khách Sạn Thương Mại
475,Boyolangu,ID,302.5,overcast clouds,-8.1181,111.8935,Yos ega cv
477,Itacoatiara,BR,296.15,overcast clouds,-3.1431,-58.4442,BBB Rooms Centro Itacoatiara AM
478,Tucurui,BR,294.46,overcast clouds,-3.7661,-49.6725,BBB Rooms Centro Tucurui PA
479,Maldonado,UY,287.81,clear sky,-34.6667,-54.9167,La Cimarrona
480,Kimbe,PG,300.96,moderate rain,-5.5502,150.1429,Kimbe Bay Hotel
482,Mezen,RU,255.42,overcast clouds,65.8522,44.24,Gostevoy Dom Everest
483,Hermiston,US,277.99,overcast clouds,45.8404,-119.2895,Oxford Suites Hermiston
485,Ganlose,DK,275.35,overcast clouds,55.7912,12.2642,SoegaardensBB
486,Lingao,CN,290.56,overcast clouds,19.9103,109.6859,Lingao Ditai Inn
487,Makakilo City,US,296.33,clear sky,21.3469,-158.0858,Marriott's Ko Olina Beach Club
488,Kearney,US,279.46,scattered clouds,40.6995,-99.0815,"Holiday Inn Kearney, an IHG Hotel"
489,Plouzane,FR,282.33,overcast clouds,48.3833,-4.6167,Lymina
490,Jinchang,CN,268.37,overcast clouds,38.4953,102.1739,Mingshihui Jinchang International Hotel
491,Caranavi,BO,290.75,overcast clouds,-15.8167,-67.55,Hotel LANDIVAR
493,Santa Maria Da Vitoria,BR,293.96,overcast clouds,-13.3947,-44.1886,Pousada Rio Current
494,Kismayo,SO,299.56,overcast clouds,-0.3582,42.5454,Agan-Hotel
495,Yar-Sale,RU,245.96,scattered clouds,66.8333,70.8333,Yalemd
496,Manadhoo,MV,301.51,broken clouds,5.7667,73.3833,Bon Abri maldives
497,Santa Marta,CO,300.31,few clouds,11.2408,-74.199,Casa de Isabella
498,Lundazi,ZM,291.55,broken clouds,-12.2929,33.1782,Knox Lodge
499,Camacha,PT,289.57,few clouds,33.0833,-16.3333,Hotel Porto Santo & Spa
500,Asau,RO,271.35,overcast clouds,46.4333,26.4,Casa Mika Ciobanus
501,Bayan,CN,259.48,broken clouds,46.0833,127.4,Wanhao Inn
502,Verkh-Chebula,RU,265.6,overcast clouds,56.0308,87.6218,Gostinitsa
503,San Patricio,US,289.2,broken clouds,28.017,-97.5169,"Motel 6 Sinton, TX"
504,Fairbanks,US,246.26,clear sky,64.8378,-147.7164,Westmark Fairbanks Hotel & Conference Center
505,Husavik,IS,267.1,light snow,66.0449,-17.3389,Bjarnabúð
506,Sabang,ID,301.01,overcast clouds,5.8933,95.3214,Hotel Citra
507,Mwandiga,TZ,293.56,overcast clouds,-4.83,29.6581,One Point
508,Natal,BR,299.27,few clouds,-5.795,-35.2094,Villa Park Hotel | Natal
509,Maple Creek,CA,257.18,overcast clouds,49.9168,-109.4848,Willowbend Campground & Cabins
510,Wanning,CN,296.15,overcast clouds,18.8003,110.3967,Paradise Hotel
511,Upernavik,GL,242.39,overcast clouds,72.7868,-56.1549,Gina's Guesthouse - Upernavik
512,Casas Grandes,MX,282.57,broken clouds,30.3667,-107.95,Pueblo del Soul B&B
513,Flagstaff,US,279.33,clear sky,35.1981,-111.6513,Drury Inn & Suites Flagstaff
515,Mongu,ZM,292.32,overcast clouds,-15.2484,23.1274,Country Lodge Mongu
516,Los Llanos De Aridane,ES,287.66,clear sky,28.6585,-17.9182,Valle Aridane
517,Aksu,CN,271.61,scattered clouds,41.1231,80.2644,Pudong Holiday Hotel
518,Dakar,SN,293.64,overcast clouds,14.6937,-17.4441,Redface Studios Meublés
519,Auki,SB,301.52,broken clouds,-8.7676,160.7034,Auki Motel
520,Awbari,LY,281.09,clear sky,26.5921,12.7805,فندق أوباري
521,Anadyr,RU,265.43,overcast clouds,64.75,177.4833,Отке17.ру — жильё для командированных
522,Cockburn Town,TC,296.95,overcast clouds,21.4612,-71.1419,Osprey Beach Hotel
523,Labuhan,ID,302.32,overcast clouds,-6.8844,112.2051,DoubleFAG
524,Bria,CF,290.67,scattered clouds,6.5423,21.9863,WFP Guesthouse
525,Bijar,IR,267.67,overcast clouds,35.8668,47.6051,رنگ فروشي جواهري
527,Inegol,TR,271.75,overcast clouds,40.0781,29.5133,Hotel Park Inegöl
528,Maihar,IN,295.78,clear sky,24.2667,80.75,Mrig Van Resort
529,Wexford,IE,283.46,overcast clouds,52.3342,-6.4575,Talbot Hotel Wexford
531,Kushmurun,KZ,267.38,overcast clouds,52.4503,64.6311,Gostinitsa Pri Depo
532,Byron Bay,AU,308.13,few clouds,-28.65,153.6167,Backpackers Inn
534,Springbok,ZA,293.59,clear sky,-29.6643,17.8865,Undulata Country Lodge
535,Trogir,HR,279.18,clear sky,43.5125,16.2517,Hotel Medena
536,Prudentopolis,BR,289.91,scattered clouds,-25.2131,-50.9778,Mayná Hotel Prudentópolis
537,Hualmay,PE,294.18,broken clouds,-11.0964,-77.6139,Hotel Villa Kitzia Huacho
538,Shenjiamen,CN,278.18,light rain,29.9576,122.298,Jinjiang Inn Zhoushan Putuo Shenjiamen
539,Dondo,MZ,296.35,clear sky,-19.6094,34.7431,Arco Iris
540,Freetown,SL,297.54,overcast clouds,8.484,-13.2299,The Country Lodge Hotel
541,Sachin,IN,297.09,mist,21.0833,72.8833,Hotel Ashish
542,Kenai,US,258.23,scattered clouds,60.5544,-151.2583,Aspen Extended Stay Suites
543,Tazovskiy,RU,255.93,overcast clouds,67.4667,78.7,TazHostel
544,Lucapa,AO,291.45,overcast clouds,-8.4192,20.7447,Residência Ulisses Dos Santos
545,Saint-Joseph,RE,301.35,overcast clouds,-21.3667,55.6167,"""Plantation Bed and Breakfast"
546,La Ronge,CA,252.29,broken clouds,55.1001,-105.2842,Northland Motor Hotel
547,Staroutkinsk,RU,266.56,overcast clouds,57.2302,59.3348,Staraya Utka
548,Jacqueville,CI,299.1,broken clouds,5.2052,-4.4146,Hotel Le Martin Pecheur
549,Meulaboh,ID,302.4,clear sky,4.1363,96.1285,Kost Pria
550,Rio Gallegos,AR,281.18,clear sky,-51.6226,-69.2181,Hotel Santa Cruz
551,Novita,CO,295.58,overcast clouds,4.9551,-76.6053,B/ Buenos Aires Sector Las Curvitas
553,Nyimba,ZM,292.97,few clouds,-14.5566,30.8149,Dali Dali Lodge
554,Marang,MY,303.11,scattered clouds,5.2056,103.2059,DBarakah Homestay
555,Maceio,BR,297.84,clear sky,-9.6658,-35.7353,Poutur Pousada
556,Dakoro,NE,284.0,clear sky,14.5106,6.765,Shagon mai liverpool
558,Roma,US,263.92,clear sky,43.2128,-75.4557,Wingate By Wyndham Rome
559,Del Rio,US,286.72,clear sky,29.3627,-100.8968,"Holiday Inn Express & Suites del Rio, an IHG Hotel"
560,Najran,SA,286.51,broken clouds,17.4924,44.1277,محمد هادي ال فطيح
561,Leningradskiy,RU,246.17,broken clouds,69.3833,178.4167,Gostinitsa
562,Juiz De Fora,BR,292.79,overcast clouds,-21.7642,-43.3503,Constantino Hotel
563,Samarai,PG,303.44,overcast clouds,-10.6167,150.6667,Nuli Sapi
564,Leshukonskoye,RU,253.44,overcast clouds,64.8989,45.7622,Pryalitsa Hostel
565,Ambatondrazaka,MG,294.95,overcast clouds,-17.8333,48.4167,MANAMBINA Hotel
566,Morlaix,FR,282.33,overcast clouds,48.5833,-4.0,Titulipe
567,Lakatoro,VU,298.18,overcast clouds,-16.0999,167.4164,Lakatoro Palm Lodge
569,Peniche,PT,284.12,clear sky,39.3558,-9.3811,Hotel Star inn Peniche
570,Saint Anthony,US,273.22,clear sky,45.0205,-93.218,Holiday Inn Express Roseville-St. Paul
571,Kohlu,PK,285.94,clear sky,29.8962,69.252,B &R Rest House
572,Hirara,JP,294.07,broken clouds,24.8,125.2833,Hotel Atoll Emerald Miyakojima
573,Grajau,BR,295.36,scattered clouds,-5.8194,-46.1386,Hotel Confiança
574,Haines Junction,CA,239.12,scattered clouds,60.7522,-137.5108,Parkside Inn
575,Verkhoshizhemye,RU,268.74,overcast clouds,58.011,49.1038,Forest
576,Yeppoon,AU,309.03,broken clouds,-23.1333,150.7333,Villa Mar Colina
577,Zharkent,KZ,271.38,overcast clouds,44.1628,80.0,гостиница Satti
578,Kungalv,SE,276.54,overcast clouds,57.871,11.9805,Hotell Fars Hatt
579,Barcelona,ES,283.07,few clouds,41.3888,2.159,Axel Hotel Barcelona
581,Hainichen,DE,274.05,overcast clouds,50.9667,13.1167,Zimmervermietung Graupner
582,Huron,US,269.08,broken clouds,41.1501,-82.5499,Meadow Brook Mobile Estates
583,Eirunepe,BR,297.27,overcast clouds,-6.6603,-69.8736,Atrás de você
584,Enshi,CN,279.72,overcast clouds,30.3,109.4833,Moevenpick Enshi
585,Cardston,CA,260.62,overcast clouds,49.2,-113.3019,Flamingo Motel
586,Camargo,MX,284.67,scattered clouds,27.6667,-105.1667,Hotel Santa Fe
587,Morondava,MG,301.37,clear sky,-20.2833,44.2833,La Case Bambou
588,Wonthaggi,AU,297.25,broken clouds,-38.6044,145.5913,Wonthaggi Caravans & Trailers
589,Ilinskiy,RU,271.99,light snow,55.619,38.1182,Around the world
590,Hohhot,CN,264.31,clear sky,40.8106,111.6522,Sheraton Hohhot Hotel
592,Alyangula,AU,306.08,scattered clouds,-13.8483,136.4192,Groote Eylandt Lodge
594,Kayseri,TR,271.16,fog,38.737,35.4968,ibis Kayseri
595,Mujiayingzi,CN,265.11,clear sky,42.1167,118.7833,Jinjiang Hotel
596,Comodoro Rivadavia,AR,292.07,broken clouds,-45.8667,-67.5,Austral Hotel
597,Price,US,271.33,broken clouds,39.5994,-110.8107,National 9 - Price River Inn
598,Tipperary,IE,282.59,overcast clouds,52.4733,-8.1558,Aisling B&B
599,Hovd,MN,251.66,overcast clouds,48.0056,91.6419,Hotel Khovd
600,Te Anau,NZ,295.98,overcast clouds,-45.4167,167.7167,Kingsgate Hotel Te Anau
601,Lanzhou,CN,271.75,overcast clouds,36.0564,103.7922,Lanzhou Amdo Xiangbala Hotel
602,Diphu,IN,291.98,broken clouds,25.8333,93.4333,Hotel Kamakhya
603,Souillac,MU,301.68,light rain,-20.5167,57.5167,Shanti Maurice Resort & Spa
604,Koumac,NC,301.21,broken clouds,-20.5667,164.2833,Le Monitel
605,Ust-Koksa,RU,264.99,overcast clouds,50.2696,85.6108,Uymonskaya Dolina
606,Cayenne,GF,299.87,broken clouds,4.9333,-52.3333,Hôtel Le Dronmi
607,Salcaja,GT,284.75,broken clouds,14.8833,-91.45,Hacienda Grande Hotel
608,Sorland,NO,274.04,overcast clouds,67.667,12.6934,Sjybrygga fiskecamp
609,Turbat,PK,296.52,clear sky,26.0023,63.044,Mubashar Quarters
611,Yilan,TW,291.21,overcast clouds,24.757,121.753,Dar Chen Hotel
612,Carbonia,IT,282.04,few clouds,39.1672,8.5222,Lu 'Hotel
613,Monte Patria,CL,293.56,overcast clouds,-30.6919,-70.9467,Hotel Monte Cordillera
614,Nemuro,JP,271.13,broken clouds,43.3236,145.575,Hotel Nemuro Kaiyoutei
615,Powell,US,271.38,clear sky,40.1578,-83.0752,The Brig
616,San,ML,294.08,few clouds,13.3034,-4.8956,Hôtel Teriya
617,Dong Hoi,VN,291.2,overcast clouds,17.4833,106.6,Nam Long Hotel
618,Bonthe,SL,297.11,broken clouds,7.5264,-12.505,Bonthe Holiday Village
619,Bajil,YE,296.8,overcast clouds,15.0584,43.2851,فندق حضرموت
620,San Jose,US,285.01,scattered clouds,37.3394,-121.895,The Westin San Jose
621,Kazanlak,BG,276.02,overcast clouds,42.6167,25.4,Palas
622,Hay River,CA,252.13,light snow,60.8156,-115.7999,Ptarmigan Inn
623,Castanos,MX,288.9,clear sky,26.7833,-101.4167,Bomberos voluntarios castaños coahuila
624,Diffa,NE,287.0,clear sky,13.3154,12.6113,ProDAF/Diffa
625,Pskov,RU,269.1,mist,57.8136,28.3496,Zolotaya Naberezhnaya
626,Yartsevo,RU,269.21,light snow,55.0667,32.6964,Apel'sin
627,Kristiinankaupunki,FI,259.23,scattered clouds,62.2743,21.376,Hotel Alma
628,Kothen,DE,276.75,overcast clouds,51.75,11.9667,Hotel Anhalt
630,Mamallapuram,IN,302.18,broken clouds,12.6264,80.1722,Radisson Blu Resort Temple Bay Mamallapuram
631,Kyren,RU,260.19,scattered clouds,51.6828,102.1408,"Energetik, Pansionat Ooo ""Grand Baykal"""
632,Nigran,ES,283.73,clear sky,42.1415,-8.8066,Parador de Baiona
633,Mongo,TD,287.51,clear sky,12.1844,18.693,Résidences du Programme FIDA
634,Vadso,NO,264.24,fog,70.0744,29.7487,Scandic Vadsø
635,Barcelos,PT,283.23,clear sky,41.5388,-8.6151,Hotel Do Terço
636,Benguela,AO,296.26,overcast clouds,-12.5763,13.4055,Hotel Praia Morena
637,Salisbury,GB,282.64,overcast clouds,51.0693,-1.7957,Mercure Salisbury White Hart Hotel
638,Tommot,RU,254.26,overcast clouds,58.9564,126.2925,Gostinitsa Tommot
639,Peterhead,GB,284.37,overcast clouds,57.5058,-1.7981,Palace Hotel
640,Roald,NO,273.71,overcast clouds,62.5833,6.1333,Flem Cabins
641,Ecatepec,MX,289.64,clear sky,19.6011,-99.0525,Hotel Ecatepec
642,Bucak,TR,272.88,overcast clouds,37.4592,30.595,Gülay Apart
643,Raudeberg,NO,273.08,light snow,61.9875,5.1352,Nordre Silda.
644,Sumbe,AO,296.83,overcast clouds,-11.2061,13.8437,Hotel Ritz Sumbe
645,Manono,CD,292.89,overcast clouds,-7.3,27.4167,Hotel hewa bora
646,Brezova,CZ,273.6,light snow,50.1456,12.65,Penzion U Bílého koníka
647,Padang,ID,303.18,broken clouds,-0.9492,100.3543,Mercure Padang
648,Varkaus,FI,266.21,overcast clouds,62.3153,27.873,Hotel Oscar
649,Puerto Madero,MX,297.84,clear sky,14.7208,-92.4215,Hospedaje madero
650,Shimoda,JP,283.76,clear sky,34.6667,138.95,Shimoda Tokyu Hotel
651,Cukai,MY,302.96,broken clouds,4.25,103.4167,OYO 90038 Dalyla Inn Chalet
652,Takaka,NZ,296.79,overcast clouds,-40.85,172.8,Golden Bay Motels
653,Phangnga,TH,306.94,broken clouds,8.4509,98.5298,Sunimit Mansion
654,Arlit,NE,283.92,clear sky,18.7369,7.3853,Case de Passage De la Prefecture
655,Ulladulla,AU,306.91,overcast clouds,-35.35,150.4667,Sandpiper Motel
656,Creel,MX,274.38,clear sky,27.75,-107.6333,The Lodge at Creel Hotel & SPA
657,Nauta,PE,295.89,overcast clouds,-4.5061,-73.5757,Amazon Exploring Expedition - Eretzen Tá Lodge
658,Olafsvik,IS,267.99,light snow,64.8945,-23.7142,Hotel Olafsvik
659,Boa Vista,BR,299.33,broken clouds,2.8197,-60.6733,Aipana Plaza Hotel
661,La Paz,BO,280.14,broken clouds,-16.5,-68.15,Hotel Sagarnaga
663,Chateauroux,FR,273.68,clear sky,46.8167,1.7,Hôtel Kyriad Chateauroux
665,Palmer,US,263.16,few clouds,42.1584,-72.3287,Wedgewood Motel
666,Beira,MZ,299.2,few clouds,-19.8436,34.8389,Beira Terrace Hotel
667,Amarante Do Maranhao,BR,294.23,broken clouds,-5.5667,-46.7422,Hotéis Caçulinha
668,Mustasaari,FI,262.53,overcast clouds,63.1142,21.6822,Hotel Astor
669,Anloga,GH,298.2,overcast clouds,5.7947,0.8973,Pin Drop Hotel
670,Deputatskiy,RU,247.39,overcast clouds,69.3,139.9,Baza Otdykha
671,San Martin,AR,297.46,clear sky,-33.081,-68.4681,Club El Pelícano
672,Corinto,GR,287.29,overcast clouds,37.9407,22.9573,Ephira Hotel
673,Rincon,US,281.55,clear sky,32.296,-81.2354,Days Inn Rincon
674,Teahupoo,PF,298.13,light rain,-17.8333,-149.2667,Vanira Lodge
675,Colchester,GB,280.39,overcast clouds,51.8892,0.9042,North Hill Hotel
676,Llata,PE,284.94,overcast clouds,-9.4167,-76.7833,Hospedaje Familia Collazos Espinoza
677,College,US,246.25,clear sky,64.8569,-147.8028,Pike's Waterfront Lodge
678,Sandpoint,US,271.23,clear sky,48.2766,-116.5533,Hotel Ruby Sandpoint/Ponderay
679,Yabrud,SY,274.0,few clouds,33.9674,36.6574,صالة افراح الاندلس
680,Port-Gentil,GA,300.24,light rain,-0.7193,8.7815,Fengshui Residence
681,Amahai,ID,304.77,overcast clouds,-3.3333,128.9167,HOTEL ISABELA
682,Boguchany,RU,259.46,overcast clouds,58.3814,97.4531,Uyut
683,Launceston,AU,297.95,few clouds,-41.45,147.1667,Hotel Grand Chancellor Launceston
685,Metro,ID,303.59,overcast clouds,-5.1131,105.3067,OYO 3177 Wisma Lintang
686,Tecoanapa,MX,297.79,clear sky,16.5167,-98.75,Hotel Manglares
687,Mount Pleasant,US,279.14,clear sky,32.7941,-79.8626,Best Western Patriots Point
689,Jimenez,MX,285.38,scattered clouds,28.3333,-105.4,El torreon
690,Vanderhoof,CA,263.3,overcast clouds,54.0166,-124.0198,Vanderhoof Inn
691,Kulu,TR,269.25,overcast clouds,39.0951,33.0799,Kapadokya Motel
693,Tikaitnagar,IN,291.27,clear sky,26.95,81.5833,gaurav ka ghar
694,Sinnamary,GF,297.27,overcast clouds,5.3833,-52.95,ALETHEIA Appartement Sinnamary
